Name,Lat,Lng,Max Temp,Humidity,Cloudiness,Wind Speed,Country,Date
Mount Isa,-20.7333,139.5,100.4,23,75,4.61,AU,1611120708
Hermanus,-34.4187,19.2345,68.0,67,63,5.99,ZA,1611120741
Butaritari,3.0707,172.7902,80.29,81,99,19.84,KI,1611120742
Vaini,-21.2,-175.2,84.2,74,75,6.91,TO,1611120744
Bambous Virieux,-20.3428,57.7575,86.0,79,75,8.05,MU,1611120745
Ixtapa,20.7,-105.2,70.0,88,100,2.19,MX,1611120746
Champerico,14.3,-91.9167,64.99,95,0,2.93,GT,1611120747
Atuona,-9.8,-139.0333,78.13,73,6,11.07,PF,1611120748
Dikson,73.5069,80.5464,-20.38,89,100,7.49,RU,1611120750
Taseyevo,57.2169,94.8978,-11.34,85,90,7.58,RU,1611120753
Clyde River,70.4692,-68.5914,5.0,85,90,14.97,CA,1611120754
Thinadhoo,0.5333,72.9333,81.01,67,0,5.48,MV,1611120757
Albany,42.6001,-73.9662,30.0,74,75,3.91,US,1611120758
Chui,-33.6971,-53.4616,61.02,86,0,3.18,UY,1611120760
Acapulco de Juárez,16.8634,-99.8901,77.49,66,95,2.91,MX,1611120742
Boa Vista,2.8197,-60.6733,75.2,78,0,5.75,BR,1611120762
Punta Arenas,-53.15,-70.9167,55.4,71,75,9.22,CL,1611120763
Longyearbyen,78.2186,15.6401,19.4,63,20,19.57,SJ,1611120764
Saint Paul Harbor,57.79,-152.4072,39.2,87,90,10.36,US,1611120767
Barra de Tecoanapa,16.5167,-98.75,75.79,81,82,2.84,MX,1611120769
Havelock,34.8791,-76.9013,52.0,76,1,10.36,US,1611120707
Richards Bay,-28.783,32.0377,76.53,83,71,18.1,ZA,1611120772
Dalby,-27.1833,151.2667,89.01,35,17,4.0,AU,1611120773
Sola,-13.8833,167.55,84.16,66,91,3.8,VU,1611120774
Mataura,-46.1927,168.8643,47.8,95,100,3.76,NZ,1611120775
Vokhtoga,58.8147,41.0461,7.74,95,93,5.21,RU,1611120776
Saint George,37.1041,-113.5841,48.99,31,90,8.05,US,1611120631
Mareeba,-17.0,145.4333,79.0,89,75,4.61,AU,1611120778
Saint-Pierre,-21.3393,55.4781,89.01,66,0,6.91,RE,1611120779
Nishihara,26.1842,127.7558,71.6,49,75,14.97,JP,1611120781
Rikitea,-23.1203,-134.9692,79.07,76,0,16.53,PF,1611120783
Tabou,4.423,-7.3528,78.01,84,53,5.86,CI,1611120784
Los Llanos de Aridane,28.6585,-17.9182,62.6,67,90,5.75,ES,1611120785
Grand Island,40.925,-98.342,28.99,68,1,9.22,US,1611120786
Ushuaia,-54.8,-68.3,59.0,55,40,16.11,AR,1611120763
Busselton,-33.65,115.3333,87.01,54,0,5.99,AU,1611120789
Coquimbo,-29.9533,-71.3436,59.0,88,0,2.3,CL,1611120790
Svetlaya,46.5389,138.3297,11.93,76,0,4.29,RU,1611120791
Ribeira Grande,38.5167,-28.7,61.29,80,67,19.75,PT,1611120792
Hobart,-42.8794,147.3294,75.0,55,20,18.41,AU,1611120691
Cape Town,-33.9258,18.4232,66.99,63,0,11.5,ZA,1611120725
Salalah,17.0151,54.0924,73.4,31,0,3.62,OM,1611120613
Barrow,71.2906,-156.7887,-4.0,77,90,13.8,US,1611120798
Tiznit Province,29.5833,-9.5,50.99,44,17,3.09,MA,1611120799
Christchurch,-43.5333,172.6333,66.0,31,58,19.57,NZ,1611120604
Alofi,-19.0595,-169.9187,82.4,83,86,2.3,NU,1611120803
Aketi,2.7388,23.7833,75.87,51,3,2.33,CD,1611120805
Novy Urengoy,66.0833,76.6333,-29.09,86,45,3.02,RU,1611120807
Saskylakh,71.9167,114.0833,-34.28,81,100,5.66,RU,1611120808
Winsum,53.33,6.5208,45.0,93,100,5.99,NL,1611120809
Ntcheu,-14.8203,34.6359,70.34,93,100,0.74,MW,1611120810
Šabac,44.7467,19.69,37.99,65,0,10.36,RS,1611120811
Port Alfred,-33.5906,26.891,71.01,87,1,1.01,ZA,1611120813
Mazara del Vallo,37.6641,12.588,46.4,93,0,9.22,IT,1611120814
Severo-Kuril'sk,50.6789,156.125,13.19,84,86,16.46,RU,1611120815
Inuvik,68.3499,-133.7218,1.4,85,99,4.61,CA,1611120548
Abonnema,4.7084,6.7931,71.6,100,40,0.31,NG,1611120818
Bluff,-46.6,168.3333,50.92,88,100,11.25,NZ,1611120819
Southbridge,42.0751,-72.0334,28.99,68,33,6.44,US,1611120820
Hilo,19.7297,-155.09,71.6,83,40,4.61,US,1611120667
Talnakh,69.4865,88.3972,-29.43,83,100,1.63,RU,1611120822
Vostok,46.4856,135.8833,1.58,84,17,2.46,RU,1611120824
Qaanaaq,77.484,-69.3632,9.73,77,100,6.44,GL,1611120825
Saint-Philippe,-21.3585,55.7679,89.01,66,0,6.91,RE,1611120826
Alakurtti,66.9672,30.3491,3.88,93,3,5.17,RU,1611120829
Hamilton,39.1834,-84.5333,39.2,60,90,14.97,US,1611120584
Altus,34.6381,-99.334,37.0,75,40,3.44,US,1611120831
San Quintín,30.4833,-115.95,63.39,66,81,20.22,MX,1611120834
Zeerust,-25.5369,26.0751,68.0,77,0,3.44,ZA,1611120835
Avarua,-21.2078,-159.775,77.0,94,100,4.61,CK,1611120837
Beloha,-25.1667,45.05,83.05,67,92,13.18,MG,1611120838
São Filipe,14.8961,-24.4956,72.3,66,100,9.93,CV,1611120839
Ejigbo,7.9,4.3167,68.04,75,32,2.48,NG,1611120840
Mar del Plata,-38.0023,-57.5575,69.01,94,0,13.33,AR,1611120547
Broome,42.2506,-75.833,30.99,80,90,9.22,US,1611120844
Lamu,-2.2717,40.902,78.8,78,1,5.75,KE,1611120845
Jamestown,42.097,-79.2353,27.0,100,90,10.36,US,1611120847
Ulladulla,-35.35,150.4667,69.8,46,75,8.05,AU,1611120848
Tel Aviv-Yafo,32.0805,34.7805,55.4,54,40,18.41,IL,1611120849
Port Lincoln,-34.7333,135.8667,77.02,38,9,10.16,AU,1611120850
Zhigansk,66.7697,123.3711,-49.59,75,75,8.84,RU,1611120852
Puerto Ayora,-0.7393,-90.3518,75.0,94,27,1.99,EC,1611120853
Fortuna,40.5982,-124.1573,42.01,87,20,10.36,US,1611120854
Poya,-21.35,165.15,79.0,81,98,6.33,NC,1611120855
Rome,43.2128,-75.4557,28.0,80,90,8.05,US,1611120856
Campbell River,50.0163,-125.2446,41.0,100,90,2.3,CA,1611120811
Havre-St-Pierre,50.2334,-63.5986,-0.4,71,1,12.66,CA,1611120858
Menomonie,44.8755,-91.9193,6.01,85,1,3.44,US,1611120859
Charters Towers,-20.1,146.2667,89.22,44,22,13.96,AU,1611120861
Constitución,-35.3333,-72.4167,57.97,88,16,3.29,CL,1611120862
Mandan,46.8267,-100.8896,25.0,100,1,12.66,US,1611120865
Graaff-Reinet,-32.2522,24.5308,66.99,62,2,3.0,ZA,1611120866
New Norfolk,-42.7826,147.0587,75.0,55,20,18.41,AU,1611120867
Sisophon,13.5859,102.9737,85.77,36,24,4.97,KH,1611120868
Castro,-24.7911,-50.0119,62.94,98,100,7.38,BR,1611120869
Meiringen,46.7268,8.184,29.6,100,64,1.14,CH,1611120871
Liuli,-11.0833,34.6333,80.2,69,100,5.82,TZ,1611120872
Torbay,47.6666,-52.7314,28.99,80,90,14.97,CA,1611120873
Oktyabr'skoye,43.0645,44.7417,21.2,93,40,6.71,RU,1611120874
Kamenka,51.3223,42.7678,-4.0,86,98,7.02,RU,1611120875
Thompson,55.7435,-97.8558,-0.4,85,90,6.91,CA,1611120876
Woodward,36.4337,-99.3904,28.4,64,1,9.22,US,1611120877
Santarém,-2.4431,-54.7083,77.0,88,75,10.36,BR,1611120794
Caravelas,-17.7125,-39.2481,73.94,86,6,4.29,BR,1611120880
Tuktoyaktuk,69.4541,-133.0374,-0.4,85,90,13.8,CA,1611120881
Igarka,67.4667,86.5833,-32.12,79,0,4.47,RU,1611120882
Nome,64.5011,-165.4064,-2.2,65,1,10.36,US,1611120792
East London,-33.0153,27.9116,69.8,78,20,9.22,ZA,1611120841
The Valley,18.217,-63.0578,78.8,78,75,12.66,AI,1611120885
Maniitsoq,65.4167,-52.9,32.92,88,100,14.34,GL,1611120886
Antofagasta,-23.65,-70.4,66.2,82,0,3.44,CL,1611120887
Ancud,-41.8697,-73.8203,55.0,100,0,3.44,CL,1611120889
João Pinheiro,-17.7425,-46.1725,68.14,77,41,4.41,BR,1611120890
Miles City,46.4083,-105.8406,33.8,47,1,11.5,US,1611120790
Bangsund,64.3968,11.3949,26.6,68,0,20.71,NO,1611120893
General Roca,-39.0333,-67.5833,77.0,47,0,3.44,AR,1611120894
Fairbanks,64.8378,-147.7164,10.4,92,75,4.61,US,1611120656
George Town,5.4112,100.3354,88.0,62,20,6.91,MY,1611120613
Cidreira,-30.1811,-50.2056,71.98,73,72,11.79,BR,1611120899
Juruti,-2.1522,-56.0922,73.94,98,100,1.68,BR,1611120900
Korla,41.7597,86.1469,28.24,76,31,4.0,CN,1611120901
Laas,46.6166,10.7002,25.0,85,0,3.31,IT,1611120904
Broken Hill,-31.95,141.4333,87.8,11,69,9.22,AU,1611120905
Portland,45.5234,-122.6762,41.0,81,40,3.44,US,1611120358
Mossamedes,-15.1961,12.1522,73.13,70,84,2.51,AO,1611120908
Mundo Nuevo (Ojo de Agua),18.7,-95.5,72.05,94,97,8.01,MX,1611120909
Abhā,18.2164,42.5053,55.4,82,20,9.22,SA,1611120871
Baraki Barak,33.9675,68.9486,36.88,60,0,2.44,AF,1611120870
Bayan,46.0833,127.4,27.0,74,100,12.53,CN,1611120914
Almaznyy,48.0448,40.045,-4.0,84,12,6.71,RU,1611120915
Faanui,-16.4833,-151.75,81.0,77,25,12.5,PF,1611120916
Puerto Escondido,15.85,-97.0667,73.4,88,1,4.61,MX,1611120918
Ndélé,8.4109,20.6473,70.3,23,30,12.15,CF,1611120919
Lundazi,-12.2929,33.1782,65.7,96,100,4.63,ZM,1611120921
Kavaratti,10.5669,72.642,82.18,76,1,9.84,IN,1611120922
Ufa,54.775,56.0375,1.0,85,90,8.95,RU,1611120875
Buala,-8.145,159.5921,84.06,71,88,3.44,SB,1611120924
Jinan,36.6683,116.9972,48.0,46,22,1.72,CN,1611120747
Bonthe,7.5264,-12.505,73.27,91,0,4.63,SL,1611120926
Kavieng,-2.5744,150.7967,83.79,74,98,10.42,PG,1611120928
Guerrero Negro,27.9769,-114.0611,63.95,72,93,20.27,MX,1611120931
Bengkulu,-3.8004,102.2655,85.86,61,31,10.11,ID,1611120932
Arraial do Cabo,-22.9661,-42.0278,74.19,89,76,19.01,BR,1611120933
Leningradskiy,69.3833,178.4167,-23.98,79,27,4.16,RU,1611120934
Pangnirtung,66.1451,-65.7125,27.19,91,89,17.36,CA,1611120935
Bethel,41.3712,-73.414,30.99,69,1,4.61,US,1611120936
Coyhaique,-45.5752,-72.0662,60.8,67,90,4.36,CL,1611120937
Hualmay,-11.0964,-77.6139,70.72,83,97,5.86,PE,1611120673
Mmathubudukwane,-24.6,26.4333,69.8,83,0,2.3,BW,1611120940
Lebanon,36.2081,-86.2911,43.0,65,40,3.44,US,1611120801
Buraidah,26.326,43.975,51.8,76,0,8.05,SA,1611120943
Benguela,-12.5763,13.4055,74.64,71,100,5.23,AO,1611120944
Xining,36.6167,101.7667,32.13,56,97,1.41,CN,1611120945
Aleksandrovskoye,44.7142,43.0008,15.8,79,75,8.95,RU,1611120946
Tuatapere,-46.1333,167.6833,50.88,88,100,15.37,NZ,1611120947
Bilma,18.6853,12.9164,51.44,42,0,9.13,NE,1611120950
Angoche,-16.2325,39.9086,86.54,67,97,2.08,MZ,1611120951
Lebu,-37.6167,-73.65,56.5,90,0,14.2,CL,1611120952
Makkah al Mukarramah,21.4267,39.8261,68.43,55,7,7.74,SA,1611120697
Bela,25.9333,81.9833,73.63,44,0,9.31,IN,1611120954
São João da Barra,-21.6403,-41.0511,74.86,87,0,13.85,BR,1611120955
Aksarka,66.5606,67.7975,-19.48,87,100,8.97,RU,1611120956
Laurel,39.0993,-76.8483,36.0,86,1,4.65,US,1611120694
Yellowknife,62.456,-114.3525,12.2,92,90,17.27,CA,1611120959
Manokwari,-0.8667,134.0833,83.28,70,19,5.84,ID,1611120680
Nikolskoye,59.7035,30.7861,23.0,80,75,6.71,RU,1611120961
Upernavik,72.7868,-56.1549,26.47,84,100,2.01,GL,1611120962
Pervomayskoye,43.919,46.7102,29.37,87,97,5.3,RU,1611120963
Liepāja,56.5419,21.0367,19.4,86,90,11.5,LV,1611120964
Zhezkazgan,47.8043,67.7144,25.39,98,77,14.23,KZ,1611120966
Cockburn Town,21.4612,-71.1419,77.16,79,62,20.33,TC,1611120760
Sucúa,-2.4667,-78.1667,66.2,79,99,2.62,EC,1611120837
Kushmurun,52.4503,64.6311,8.58,94,93,10.27,KZ,1611120969
Forsytheganj,52.6333,29.7333,1.67,93,7,7.18,BY,1611120970
La Ronge,55.1001,-105.2842,35.6,64,98,6.91,CA,1611120971
Srednekolymsk,67.45,153.6833,-44.01,80,36,2.44,RU,1611120972
Bosaso,11.2842,49.1816,75.09,63,71,6.26,SO,1611120973
Sittwe,20.15,92.9,75.6,49,0,4.94,MM,1611120976
Ambanja,-13.6833,48.45,77.07,91,100,11.54,MG,1611120977
Desaguadero,-16.5656,-69.0417,46.29,82,100,8.57,PE,1611120979
Anadyr,64.75,177.4833,-20.2,69,40,6.71,RU,1611120981
Vernon,50.2581,-119.2691,34.0,80,87,5.75,CA,1611120982
Opuwo,-18.0607,13.84,70.16,65,85,0.56,NA,1611120983
Esperance,-33.8667,121.9,73.4,56,90,19.57,AU,1611120984
Ukiah,39.1502,-123.2078,44.6,49,1,3.91,US,1611120985
Mahébourg,-20.4081,57.7,84.2,79,75,8.05,MU,1611120986
Katsuura,35.1333,140.3,48.0,39,20,6.91,JP,1611120987
Lüderitz,-26.6481,15.1594,69.19,66,0,8.01,NA,1611120988
San Pedro de Urabá,8.2752,-76.3764,72.57,95,31,1.79,CO,1611120725
Yulara,-25.2406,130.9889,98.6,8,0,9.22,AU,1611120991
Kiunga,-6.1219,141.2906,90.63,55,91,4.79,PG,1611120992
Geraldton,-28.7667,114.6,82.4,54,4,17.27,AU,1611120760
Airai,-8.9266,125.4092,70.9,95,93,3.2,TL,1611120994
Chengde,40.9725,117.9361,29.12,79,1,2.95,CN,1611120997
Saldanha,-33.0117,17.9442,60.8,82,0,8.05,ZA,1611120998
Provideniya,64.3833,-173.3,-4.0,77,32,13.42,RU,1611120999
Salekhard,66.53,66.6019,-19.1,87,100,11.56,RU,1611121000
Batesville,35.7698,-91.641,39.2,65,1,4.61,US,1611121001
Kruisfontein,-34.0033,24.7314,68.0,80,43,1.99,ZA,1611121002
Sibut,5.718,19.0739,69.76,26,12,3.06,CF,1611121003
Pevek,69.7008,170.3133,-31.58,85,100,7.34,RU,1611121004
Avera,33.194,-82.5271,53.6,46,90,3.44,US,1611121006
Mandalgovi,45.7625,106.2708,23.04,83,41,10.11,MN,1611121007
Pisco,-13.7,-76.2167,69.8,83,0,5.75,PE,1611121008
Hong Kong,22.2855,114.1577,69.01,62,64,5.01,HK,1611120765
Bocana de Paiwas,12.7857,-85.1227,69.17,95,13,12.55,NI,1611121010
Doha,25.2867,51.5333,69.8,56,0,9.22,QA,1611120799
Norman Wells,65.282,-126.8329,6.8,78,90,21.85,CA,1611121013
Bredasdorp,-34.5322,20.0403,66.2,59,62,4.61,ZA,1611121015
Mocuba,-16.8392,36.9856,80.53,86,100,2.1,MZ,1611121016
Pagudpud,18.5616,120.7868,91.4,49,75,11.5,PH,1611121019
Sandwick,60.0,-1.25,39.2,75,40,12.66,GB,1611121020
Waipawa,-41.4122,175.5153,62.6,48,20,23.02,NZ,1611121022
Touros,-5.1989,-35.4608,77.0,88,40,4.61,BR,1611121024
Khovd,48.0056,91.6419,23.54,67,99,0.6,MN,1611121025
Kayerkan,69.3497,87.7602,-30.6,84,100,2.28,RU,1611121026
Øksfjord,70.2396,22.3479,21.2,85,0,4.61,NO,1611121027
Labuan,5.2767,115.2417,86.0,70,20,3.44,MY,1611121030
Oistins,13.0667,-59.5333,78.8,69,40,21.85,BB,1611121031
Olafsvik,64.8945,-23.7142,30.9,93,74,35.75,IS,1611121032
Shimoda,34.6667,138.95,46.4,53,75,10.36,JP,1611120799
Kapaa,22.0752,-159.319,71.6,94,90,17.27,US,1611121034
Banda Aceh,5.5577,95.3222,84.99,68,44,8.12,ID,1611121035
Orlik,52.5178,99.825,6.49,78,20,12.48,RU,1611121036
Guiyang,26.5833,106.7167,48.2,71,90,2.24,CN,1611121038
Luba,3.4568,8.5547,73.4,88,20,3.44,GQ,1611121040
Nanortalik,60.1432,-45.2371,26.13,91,47,14.07,GL,1611121041
Natalicio Talavera,-25.6333,-56.3,69.67,92,40,3.96,PY,1611121043
Comodoro Rivadavia,-45.8667,-67.5,71.6,43,0,6.91,AR,1611121026
Kulhudhuffushi,6.6221,73.07,81.68,68,22,6.89,MV,1611121045
Chokurdakh,70.6333,147.9167,-33.97,84,80,1.54,RU,1611121047
Jaynagar,26.5833,86.15,73.63,45,0,6.55,IN,1611121048
Klaksvík,62.2266,-6.589,35.6,87,40,20.71,FO,1611121049
Havøysund,70.9963,24.6622,24.8,63,40,10.36,NO,1611121050
Dawei,14.0833,98.2,85.69,34,18,8.88,MM,1611121052
Marsh Harbour,26.5412,-77.0636,68.59,60,18,10.67,BS,1611120916
Iskateley,67.6803,53.1512,-9.74,90,100,15.93,RU,1611121054
Flinders,-34.5833,150.8552,72.0,60,26,3.0,AU,1611121055
Bunia,1.5667,30.25,70.52,57,63,3.87,CD,1611121056
Muhafazat Lahij,13.1667,44.5833,72.3,67,57,5.73,YE,1611121058
Yumen,40.2833,97.2,27.61,77,97,20.85,CN,1611121059
Oberá,-27.4871,-55.1199,70.23,91,45,4.59,AR,1611121060
Arona,28.0996,-16.681,61.0,77,0,9.22,ES,1611121061
Choix,26.7092,-108.3219,61.12,77,100,6.62,MX,1611121062
Vardø,70.3705,31.1107,23.0,93,75,20.71,NO,1611121063
Launceston,-41.45,147.1667,73.4,33,0,12.66,AU,1611120977
Mojokerto,-7.4664,112.4338,87.8,70,40,14.97,ID,1611121066
Zhanjiang,21.2815,110.3427,64.2,80,96,12.97,CN,1611121067
Hofn,64.2539,-15.2082,33.62,86,44,21.32,IS,1611121068
Hithadhoo,-0.6,73.0833,81.18,71,0,10.83,MV,1611121069
Warrington,53.3925,-2.5802,52.0,93,90,12.66,GB,1611120970
Port Hardy,50.6996,-127.4199,41.0,100,40,2.3,CA,1611121072
Warman,52.3168,-106.5679,32.0,74,90,23.02,CA,1611121073
Sovetskiy,61.3614,63.5842,-3.12,88,100,8.14,RU,1611121074
Caucayá,-0.1934,-74.7819,71.04,98,100,3.89,CO,1611121075
Yangi Marg`ilon,40.4272,71.7189,46.4,71,49,2.3,UZ,1611121076
Laguna,38.421,-121.4238,52.0,37,1,5.75,US,1611121077
La Paz,-16.5,-68.15,41.0,100,75,5.75,BO,1611121047
Mount Gambier,-37.8333,140.7667,78.8,34,0,12.66,AU,1611121080
Chernyshevskiy,63.0128,112.4714,-48.1,78,100,2.77,RU,1611121081
Bumba,2.1833,22.4667,75.31,65,13,2.57,CD,1611121082
Al Bardīyah,31.7561,25.0865,51.85,66,5,15.88,LY,1611121084
Plouzané,48.3833,-4.6167,50.0,93,90,23.02,FR,1611121085
Yatou,37.15,122.3833,43.39,72,34,12.75,CN,1611121043
Iqaluit,63.7506,-68.5145,21.2,86,90,13.8,CA,1611121088
Tura,25.5198,90.2201,74.05,42,3,3.38,IN,1611121089
Kabo,7.6994,18.629,68.65,24,10,3.91,CF,1611121090
Asău,46.4333,26.4,24.01,93,75,10.36,RO,1611121091
Santa Maria,-29.6842,-53.8069,62.38,86,0,7.36,BR,1611121002
Palmer,42.1584,-72.3287,30.0,74,90,3.44,US,1611120885
Yunyang,33.4474,112.7142,48.0,39,91,3.91,CN,1611121096
Daru,-9.0763,143.2092,86.38,71,82,10.96,PG,1611120860
San Bartolomé de Tirajana,27.9248,-15.5733,57.2,77,0,5.75,ES,1611121098
Neiafu,-18.65,-173.9833,84.2,79,40,5.75,TO,1611121099
Lokoja,7.8024,6.743,70.21,43,62,1.16,NG,1611120901
Luwuk,-0.9516,122.7875,83.88,73,99,4.38,ID,1611121102
Bonavista,48.6499,-53.1147,28.99,80,100,9.22,CA,1611121103
Khatanga,71.9667,102.5,-25.92,86,100,7.34,RU,1611121104
Kropotkin,45.4375,40.5756,16.36,97,95,2.39,RU,1611121105
Port-Gentil,-0.7193,8.7815,80.6,89,40,4.61,GA,1611121106
Necochea,-38.5473,-58.7368,67.44,53,33,13.13,AR,1611121108
Cherskiy,68.75,161.3,-44.61,79,100,6.02,RU,1611121109
Nuuk,64.1835,-51.7216,37.4,65,75,16.11,GL,1611121111
Mehamn,71.0357,27.8492,23.0,74,75,8.05,NO,1611121112
Isangel,-19.55,169.2667,86.0,84,75,5.75,VU,1611120850
Okhotsk,59.3833,143.3,-5.57,83,99,4.7,RU,1611121114
Sitka,57.0531,-135.33,37.4,87,90,6.91,US,1611121116
Atar,20.5169,-13.0499,59.77,27,100,11.36,MR,1611121117
Carnarvon,-24.8667,113.6333,86.0,66,0,20.71,AU,1611121118
Kānker,20.2719,81.4931,86.54,30,0,8.61,IN,1611121119
Cocobeach,1.0002,9.5823,77.0,94,40,5.23,GA,1611121120
Candolim,15.5181,73.7626,86.0,51,0,6.91,IN,1611121121
Marabu,4.4148,114.0089,80.6,89,40,5.75,MY,1611121123
Itoman,26.1247,127.6694,71.01,60,75,14.97,JP,1611121124
Cayenne,4.9333,-52.3333,77.0,83,20,3.44,GF,1611121001
Weiser,44.251,-116.9693,30.0,80,1,3.42,US,1611121126
Henties Bay,-22.116,14.2845,66.99,86,50,0.69,NA,1611121127
Bubaque,11.2833,-15.8333,77.13,56,56,9.33,GW,1611121128
Batticaloa,7.7102,81.6924,81.41,76,6,3.09,LK,1611121129
Nizwá,22.9333,57.5333,77.67,20,0,2.82,OM,1611121131
Schladming,47.3929,13.687,32.0,80,100,4.23,AT,1611121133
Vestmannaeyjar,63.4427,-20.2734,35.73,80,52,16.31,IS,1611121134
Naze,28.3667,129.4833,66.2,55,75,14.97,JP,1611120901
Parabel',58.6978,81.4825,-24.65,85,0,3.78,RU,1611121137
Safakulevo,54.9901,62.5442,6.39,95,100,4.41,RU,1611121138
Pimentel,-6.8367,-79.9342,69.98,84,100,10.65,PE,1611121139
Dīr,35.2058,71.8756,51.1,33,0,9.28,PK,1611121140
Tiksi,71.6872,128.8694,-26.3,85,100,4.18,RU,1611121142
Dunedin,-45.8742,170.5036,55.62,73,100,10.6,NZ,1611121143
Labuhan,-6.8844,112.2051,83.19,79,97,9.69,ID,1611121145
Teya,60.3778,92.6267,-18.76,83,86,3.4,RU,1611121146
Tual,-5.6667,132.75,83.48,72,96,1.48,ID,1611121147
Lorengau,-2.0226,147.2712,84.27,71,88,6.17,PG,1611121148
Pasni,25.2631,63.471,69.85,71,0,1.48,PK,1611121149
Shestakovo,56.4915,103.96,-0.85,87,100,12.12,RU,1611121150
Lewiston,44.1003,-70.2148,19.0,88,90,2.26,US,1611121124
Mana,5.6592,-53.7767,75.6,83,100,11.36,GF,1611121153
Kaitangata,-46.2817,169.8464,52.0,68,99,13.0,NZ,1611121154
Antalaha,-14.9003,50.2788,78.24,86,100,4.21,MG,1611121155
Vila Velha,-20.3297,-40.2925,73.0,88,20,3.44,BR,1611121157
Marevo,57.3146,32.0804,7.21,94,0,4.68,RU,1611121161
Sioux Lookout,50.1001,-91.917,-4.0,84,90,8.05,CA,1611121162
Olinda,-8.0089,-34.8553,78.8,69,40,6.91,BR,1611121163
Alta Floresta,-9.8756,-56.0861,73.4,100,0,1.14,BR,1611121165
Umm Kaddadah,13.6017,26.6876,56.21,36,1,23.98,SD,1611121167
Bulgan,48.8125,103.5347,22.73,86,5,3.38,MN,1611121169
Kabompo,-13.5927,24.2008,67.95,94,100,5.26,ZM,1611121170
Miraflores,19.2167,-98.8083,60.8,44,40,11.5,MX,1611121172
Husavik,66.0449,-17.3389,30.2,93,90,18.41,IS,1611121173
Arman',59.7,150.1667,-12.14,79,0,7.58,RU,1611121174
Luena,-11.7833,19.9167,64.17,88,100,6.02,AO,1611121175
Sibolga,1.7427,98.7792,85.15,61,97,4.74,ID,1611121176
Shelburne,44.0787,-80.2041,23.0,80,78,9.89,CA,1611121179
Chumikan,54.7183,135.315,-9.67,77,32,22.19,RU,1611121181
Ruska Poliana,49.417,31.9201,7.34,92,0,4.68,UA,1611121182
Ulety,51.3572,112.4849,13.78,84,68,8.3,RU,1611121183
Mollet del Vallès,41.5403,2.2131,52.0,93,90,3.24,ES,1611121039
San Patricio,28.017,-97.5169,68.0,83,90,10.36,US,1611121185
Araguaçu,-12.9306,-49.8264,72.07,90,99,4.43,BR,1611121186
Kichmengskiy Gorodok,59.9816,45.7854,1.49,93,84,5.1,RU,1611121188
Aripuanã,-9.1667,-60.6333,71.53,99,100,0.43,BR,1611121189
Kathu,7.9178,98.3332,84.2,61,20,10.36,TH,1611121190
Viedma,-40.8135,-62.9967,67.01,78,28,5.32,AR,1611121191
Moyo,3.6609,31.7247,79.7,32,58,4.36,UG,1611121192
Ust'-Ordynskiy,52.805,104.7508,8.6,92,0,6.71,RU,1611121193
Leshukonskoye,64.8989,45.7622,4.91,95,100,1.92,RU,1611121194
San Andrés,12.5847,-81.7006,80.6,78,40,20.71,CO,1611121196
Mogadishu,2.0371,45.3438,81.03,73,97,20.2,SO,1611121197
Porvoo,60.3923,25.6651,23.0,94,8,7.09,FI,1611121198
Aklavik,68.2191,-135.0107,1.4,85,100,4.61,CA,1611121199
Stabat,3.761,98.4513,84.2,74,40,4.61,ID,1611121202
Camacupa,-12.0167,17.4833,61.79,75,100,3.98,AO,1611121204
Batagay,67.6333,134.6333,-36.6,78,95,1.81,RU,1611121205
Haysville,37.5645,-97.3523,32.0,59,1,5.75,US,1611121078
Galle,6.0367,80.217,82.72,68,79,3.58,LK,1611120999
Soanierana Ivongo,-16.9167,49.5833,81.55,84,100,8.59,MG,1611121210
Sobolevo,54.4299,31.8996,-4.07,92,44,4.43,RU,1611121211
Raudeberg,61.9875,5.1352,34.0,68,0,8.84,NO,1611121213
Merauke,-8.4667,140.3333,86.2,66,93,9.22,ID,1611121214
Edgewater,28.9889,-80.9023,53.01,93,1,4.09,US,1611121215
Burnie,-41.0667,145.9167,70.0,52,0,13.0,AU,1611121218
Marawi,7.9986,124.2928,82.0,84,98,7.0,PH,1611121219
Alice Springs,-23.7,133.8833,96.8,11,0,6.91,AU,1611121221
Tasiilaq,65.6145,-37.6368,8.6,72,94,3.0,GL,1611121222
Gravdal,68.1214,13.5031,28.4,64,75,6.91,NO,1611121223
Kaeo,-35.1,173.7833,63.0,74,44,8.01,NZ,1611121224
Margate,51.3813,1.3862,48.99,93,100,5.01,GB,1611121226
Kharitonovo,61.4009,47.4978,4.84,94,92,4.85,RU,1611121229
Codrington,-38.2667,141.9667,65.19,59,0,13.85,AU,1611121230
Margaritas,20.4538,-102.4739,60.53,50,56,1.7,MX,1611121231
Kidal,18.4411,1.4078,57.31,32,0,15.32,ML,1611121233
Lompoc,34.6391,-120.4579,55.99,43,0,5.75,US,1611121046
Griffith,41.5284,-87.4237,28.4,86,90,14.97,US,1611121235
Lata,40.1629,-8.3327,55.0,84,100,10.0,PT,1611121237
Port Macquarie,-31.4333,152.9167,72.0,68,98,1.01,AU,1611121120
Young,-32.6833,-57.6333,66.15,57,0,7.36,UY,1611121141
Cabo San Lucas,22.8909,-109.9124,63.0,78,100,8.99,MX,1611121240
Haines Junction,60.7522,-137.5108,17.6,93,88,2.3,CA,1611121241
San Julián,21.0167,-102.1667,57.47,58,95,0.92,MX,1611121242
Souillac,-20.5167,57.5167,84.2,79,75,8.05,MU,1611121244
Tsumeb,-19.2333,17.7167,66.2,94,100,2.3,NA,1611121245
Blagoyevo,63.3667,47.9167,6.51,95,100,5.28,RU,1611121246
Ca Mau,9.1769,105.15,87.71,41,89,5.66,VN,1611120987
Okha,53.5739,142.9478,-12.14,82,62,18.77,RU,1611121248
Port Keats,-14.25,129.55,90.09,64,81,7.81,AU,1611121249
Harper,4.375,-7.7169,78.01,84,66,6.02,LR,1611121250
Carutapera,-1.195,-46.02,75.04,92,100,6.8,BR,1611121252
Nurota,40.5614,65.6886,50.0,57,100,16.11,UZ,1611121253
Bitung,1.4451,125.1824,87.8,70,40,3.44,ID,1611121255
Warrnambool,-38.3833,142.4833,71.01,61,0,1.01,AU,1611121256
Otane,-39.8833,176.6333,55.0,72,99,13.0,NZ,1611121258
Udachny,66.4167,112.4,-53.9,67,100,2.3,RU,1611121005
Oparino,59.8518,48.2783,-1.57,93,89,5.19,RU,1611121260
Amoy,24.4798,118.0819,71.6,53,75,6.71,CN,1611121261
Berlevåg,70.8578,29.0864,23.0,74,75,8.05,NO,1611121263
Padang,-0.9492,100.3543,87.8,58,30,6.91,ID,1611121266
Sorong,-0.8833,131.25,84.9,73,47,13.96,ID,1611121003
Mirny,62.5353,113.9611,-44.34,78,100,4.05,RU,1611121268
Abalak,58.1286,68.5944,-6.66,88,100,9.46,RU,1611121269
Terekli-Mekteb,44.1671,45.8698,29.75,88,97,6.85,RU,1611121270
Baculin,7.4525,126.5842,84.45,68,99,4.14,PH,1611121271
Wanning,18.8003,110.3967,71.15,85,85,8.19,CN,1611121273
Lima,-12.0432,-77.0282,73.0,83,20,11.5,PE,1611121275
Binga,-17.6203,27.3414,72.86,91,100,4.29,ZW,1611121276
Jalu,29.0331,21.5482,44.47,80,32,5.64,LY,1611121277
Narsaq,60.9167,-46.05,37.4,38,20,27.63,GL,1611121278
Aykhal,66.0,111.5,-53.21,69,100,2.04,RU,1611121279
Hay River,60.8156,-115.7999,23.0,86,84,16.11,CA,1611121194
Båtsfjord,70.6345,29.7185,23.0,93,75,20.71,NO,1611121281
Ponta do Sol,32.6667,-17.1,61.0,88,100,8.99,PT,1611121283
La Santisima Trinidad,-14.8333,-64.9,69.87,83,46,2.08,BO,1611121284
Dimitrovgrad,54.2139,49.6184,-14.8,76,74,4.47,RU,1611121285
Samur,41.8253,48.486,32.32,96,83,8.19,RU,1611121286
Salina Cruz,16.1667,-95.2,77.59,64,64,18.21,MX,1611121287
Mayo,38.8876,-76.5119,35.01,69,1,6.64,US,1611121288
Bilibino,68.0546,166.4372,-44.59,75,40,0.27,RU,1611121290
Bintulu,3.1667,113.0333,78.8,94,40,4.61,MY,1611121291
Port Elizabeth,-33.918,25.5701,68.0,88,40,4.61,ZA,1611121292
Ankara,39.9199,32.8543,16.0,85,0,2.33,TR,1611121293
Formosa do Rio Preto,-11.0483,-45.1931,70.56,68,23,0.38,BR,1611121294
São José da Coroa Grande,-8.8978,-35.1478,76.28,84,79,6.38,BR,1611121296
Dhībān,35.0365,40.5167,49.06,72,73,6.11,SY,1611121297
Cairns,-16.9167,145.7667,79.0,89,75,4.61,AU,1611121299
Florø,61.5996,5.0328,37.4,60,0,11.5,NO,1611121300
Kamyshnya,50.1859,33.684,0.93,93,0,3.56,UA,1611121302
Ilulissat,69.2167,-51.1,21.2,63,92,9.22,GL,1611121303
Itarema,-2.9248,-39.9167,78.26,83,100,8.66,BR,1611121305
Chara,56.9064,118.2631,-7.37,80,98,0.34,RU,1611121306
San Francisco,37.7749,-122.4194,57.99,30,20,4.61,US,1611121275
Namatanai,-3.6667,152.4333,83.84,70,95,9.86,PG,1611121308
Yining,29.0361,114.5636,65.55,34,38,2.66,CN,1611121309
Oktyabr'skiy,54.4815,53.471,-8.23,89,100,7.52,RU,1611121310
São Raimundo das Mangabeiras,-7.0219,-45.4811,71.47,92,100,2.46,BR,1611121311
Port Blair,11.6667,92.75,82.24,57,33,12.66,IN,1611121312
Dvinskoy Bereznik,62.8551,42.7072,4.68,95,94,5.35,RU,1611121314
Nhamundá,-2.1861,-56.7131,73.89,97,97,3.09,BR,1611121315
Chase,50.8165,-119.6857,28.99,86,72,1.14,CA,1611121316
Qaqortoq,60.7167,-46.0333,37.4,38,20,27.63,GL,1611121317
Hasaki,35.7333,140.8333,48.0,31,20,3.44,JP,1611121318
Guane,22.2025,-84.0875,65.39,87,62,9.08,CU,1611121319
Kurisove,46.9695,30.9591,26.01,93,75,4.47,UA,1611121321
Chicama,-7.8447,-79.1469,72.3,76,99,4.76,PE,1611121322
Mezcala,20.9333,-102.75,62.01,60,77,2.66,MX,1611121323
Marabá,-5.3686,-49.1178,77.0,100,75,8.05,BR,1611121324
Pokhara,28.2333,83.9833,66.72,40,50,5.46,NP,1611121142
Española,35.9911,-106.0806,25.0,86,1,6.91,US,1611121327
Speightstown,13.25,-59.65,78.8,69,40,21.85,BB,1611121329
Kabinda,-6.1333,24.4833,68.09,95,100,1.72,CD,1611121330
Rocha,-34.4833,-54.3333,59.86,83,0,5.01,UY,1611121331
Wau,7.7029,27.9953,70.54,22,40,10.02,SS,1611121333
Amga,60.8953,131.9608,-34.13,79,98,1.54,RU,1611121334
Barabinsk,55.3571,78.357,-14.1,87,75,6.55,RU,1611121336
Corinth,37.9407,22.9573,41.0,53,0,1.01,GR,1611121337
Acaraú,-2.8856,-40.12,78.1,84,100,8.39,BR,1611121155
Carupano,10.6678,-63.2585,74.62,84,90,12.91,VE,1611121339
Cap-aux-Meules,47.3821,-61.8597,21.2,73,100,19.57,CA,1611121340
Huarmey,-10.0681,-78.1522,70.93,82,95,8.37,PE,1611121341
Riyadh,24.6877,46.7219,59.0,36,0,8.05,SA,1611121343
Filingué,14.3521,3.3168,62.49,28,0,10.63,NE,1611121344
Fallon,39.4735,-118.7774,24.8,50,1,4.61,US,1611121345
Perth,-31.9333,115.8333,87.8,48,20,11.5,AU,1611121337
Arlit,18.7369,7.3853,55.96,33,0,6.31,NE,1611121348
Sūrandai,8.9667,77.4,82.45,53,53,3.33,IN,1611121341
Killybegs,54.6333,-8.45,34.0,97,100,8.86,IE,1611121350
Paamiut,61.994,-49.6678,29.12,87,100,3.33,GL,1611121352
Chimoio,-19.1164,33.4833,71.6,100,75,3.18,MZ,1611121353
Miyako,39.6367,141.9525,32.14,85,58,0.94,JP,1611121354
Valley City,46.9233,-98.0032,14.0,92,20,16.11,US,1611121355
Tallahassee,30.4383,-84.2807,46.99,87,1,3.06,US,1611121083
Roncade,45.63,12.3742,32.0,86,75,4.61,IT,1611121357
Novouzensk,50.4592,48.1431,-1.7,92,93,5.82,RU,1611121359
Vung Tau,10.346,107.0843,80.89,59,86,4.68,VN,1611121360
Le Port,-20.9373,55.2919,80.6,89,90,4.61,RE,1611121362
Kununurra,-15.7667,128.7333,91.4,62,40,10.36,AU,1611121363
San Cristobal,7.7669,-72.225,63.28,77,21,1.39,VE,1611121364
San Jose,37.3394,-121.895,55.4,24,1,8.05,US,1611121066
Andra,62.5147,65.8878,-10.66,87,100,9.53,RU,1611121366
Matara,5.9485,80.5353,85.71,59,79,3.42,LK,1611121368
Fare,-16.7,-151.0167,80.91,77,3,13.73,PF,1611121369
Vangaindrano,-23.35,47.6,83.41,75,81,3.91,MG,1611121370
Bhaderwah,32.9784,75.7186,52.95,38,0,2.1,IN,1611121371
Beringovskiy,63.05,179.3167,4.96,96,100,7.92,RU,1611121372
Malaṅgawā,26.8568,85.5581,73.47,46,0,6.62,NP,1611121373
Menemen,38.6075,27.0694,26.6,80,0,5.55,TR,1611121374
Karratha,-20.7377,116.8463,96.8,41,71,13.6,AU,1611121376
Brawley,32.9787,-115.5303,62.6,71,90,5.75,US,1611121377
Krasnosel'kup,65.7,82.4667,-26.14,85,81,5.21,RU,1611121378
Talaya,61.3833,152.75,-41.26,78,83,0.67,RU,1611121380
Salmon Arm,50.6998,-119.3024,28.4,86,76,1.14,CA,1611121381
Pizarro,4.9533,-77.366,76.44,89,32,3.85,CO,1611121383
Key West,24.5557,-81.7826,66.2,77,1,9.22,US,1611121283
Kitami,43.8031,143.8908,21.99,42,20,9.22,JP,1611121386
Mufulira,-12.5498,28.2407,63.97,98,100,3.31,ZM,1611121387
Mayumba,-3.432,10.6554,76.78,84,86,3.6,GA,1611121389
Brae,60.3964,-1.353,39.2,75,40,12.66,GB,1611121390
Makakilo City,21.3469,-158.0858,75.2,73,20,4.61,US,1611121391
Kyabé,9.4515,18.9449,67.37,24,13,6.89,TD,1611121393
Washougal,45.5826,-122.3534,39.99,81,40,3.44,US,1611121394
Jiangyou,31.7667,104.7167,56.26,39,87,5.26,CN,1611121395
Maceió,-9.6658,-35.7353,73.4,94,40,3.44,BR,1611121397
Giohar,2.7809,45.5005,84.18,57,84,19.01,SO,1611121398
Taoudenni,22.6783,-3.9836,55.8,34,84,10.51,ML,1611121401
Ust-Tsilma,65.441,52.1498,2.39,93,100,3.8,RU,1611121402
Genhe,50.7833,121.5167,4.33,89,100,3.98,CN,1611121403
Palamós,41.8484,3.1291,52.0,25,16,18.5,ES,1611121404
Kahului,20.8947,-156.47,73.4,73,40,11.5,US,1611121405
Louth,53.3666,-0.0044,51.8,93,75,20.71,GB,1611121311
Sakaiminato,35.55,133.2333,44.6,53,20,6.91,JP,1611121409
Westport,41.1415,-73.3579,35.01,81,0,10.92,US,1611121410
Conceição do Araguaia,-8.2578,-49.2647,72.93,93,71,1.81,BR,1611121411
Stonewall,50.1344,-97.3268,7.0,85,90,27.63,CA,1611121412
Dalhousie,32.5333,75.9833,52.07,37,0,3.56,IN,1611121413
Baraboo,43.4711,-89.7443,12.99,85,90,3.44,US,1611121414
Wairoa,-39.0333,177.3667,70.0,42,98,8.99,NZ,1611121416
Tilichiki,60.4667,166.1,-22.14,87,100,13.71,RU,1611121417
Lagoa,39.05,-27.9833,60.35,81,68,22.37,PT,1611121418
Santa Rosa,14.3122,121.1114,79.0,89,90,5.75,PH,1611121419
Gushikawa,26.3544,127.8686,71.6,56,40,17.27,JP,1611121420
Lixouri,38.2019,20.4314,50.63,57,0,9.66,GR,1611121422
Ariquemes,-9.9133,-63.0408,70.66,98,100,0.63,BR,1611121424
Tapes,-30.6733,-51.3958,68.77,79,0,9.73,BR,1611121238
Shubarshi,48.5872,57.1869,0.45,92,0,5.28,KZ,1611121426
Brejo Santo,-7.4933,-38.9872,78.8,78,40,2.3,BR,1611121427
Qandala,11.472,49.8728,73.69,65,77,4.07,SO,1611121429
Vitim,59.4511,112.5578,-23.44,82,100,3.15,RU,1611121431
Dongdu,35.85,117.7,44.24,65,93,4.83,CN,1611121432
Agbor,6.2518,6.1934,73.89,94,50,1.16,NG,1611121433
Três Rios,-22.1167,-43.2092,66.0,93,90,1.01,BR,1611121434
Tigzirt,36.8886,4.1198,52.27,49,16,14.72,DZ,1611121435
Tsiroanomandidy,-18.7667,46.0333,78.89,68,66,6.06,MG,1611121436
Lokosovo,61.1333,74.8167,-22.94,86,3,4.63,RU,1611121438
Hashtrūd,37.4779,47.0508,33.26,89,79,6.96,IR,1611121440
Mastic Beach,40.7668,-72.8521,36.0,64,1,5.75,US,1611121441
Zeya,53.75,127.2667,-13.49,84,100,2.06,RU,1611121442
Vanimo,-2.6741,141.3028,85.24,62,49,5.88,PG,1611121443
Jinchang,38.4953,102.1739,37.81,42,0,3.33,CN,1611121444
Saint-François,46.4154,3.9054,48.2,66,0,19.57,FR,1611121446
Concarneau,47.875,-3.9225,51.8,93,90,20.71,FR,1611121447
Kalmunai,7.4167,81.8167,83.1,72,5,4.21,LK,1611121448
Neepawa,50.2289,-99.4664,24.8,80,90,11.5,CA,1611121449
Palimbang,6.2106,124.1894,84.24,71,94,4.81,PH,1611121450
Te Anau,-45.4167,167.7167,49.51,86,100,6.87,NZ,1611121451
College,64.8569,-147.8028,10.4,85,40,2.86,US,1611121452
Solnechnyy,50.7214,136.6319,-5.39,85,27,7.74,RU,1611121454
Muros,42.7762,-9.0603,53.01,96,91,24.0,ES,1611121455
Northam,51.0333,-4.2167,53.01,95,100,11.99,GB,1611121457
Juneau,58.3019,-134.4197,37.4,81,90,5.75,US,1611121174
Monster,52.0258,4.175,46.99,81,90,20.71,NL,1611121460
Quatre Cocos,-20.2078,57.7625,84.99,79,75,8.05,MU,1611121461
Kilindoni,-7.9139,39.6668,82.06,77,99,12.19,TZ,1611121462
Garden City,42.3256,-83.331,30.2,93,90,8.05,US,1611121263
Mbour,14.422,-16.9638,66.2,48,61,12.66,SN,1611121464
Chuguyevka,44.1653,133.8633,20.44,91,30,3.42,RU,1611121465
Emerald,-23.5333,148.1667,95.0,34,75,10.36,AU,1611121467
Mendoza,-32.8908,-68.8272,73.4,43,0,4.12,AR,1611121468
Itainópolis,-7.4469,-41.4783,76.8,56,97,2.28,BR,1611121469
Saint Anthony,45.0205,-93.218,6.8,78,1,4.61,US,1611121470
Skellefteå,64.7507,20.9528,15.8,92,90,9.22,SE,1611121471
Itapetininga,-23.5917,-48.0531,69.51,91,100,7.83,BR,1611121472
Ahipara,-35.1667,173.1667,62.24,70,71,14.18,NZ,1611121473
Telimele,10.9167,-13.3333,59.94,58,0,0.94,GN,1611121474
Gari,59.4307,62.3497,1.87,91,100,8.08,RU,1611121476
Jacareacanga,-6.2222,-57.7528,72.37,96,100,1.03,BR,1611121477
Khvorostyanka,52.6096,48.9597,-9.62,90,71,6.06,RU,1611121480
Kosh-Agach,50.0,88.6667,12.22,83,19,0.45,RU,1611121482
Wau,7.7029,27.9953,70.54,22,40,10.02,SS,1611121333
Japura,-0.3167,102.35,87.53,53,63,3.87,ID,1611121485
Tazovsky,67.4667,78.7,-34.42,84,52,4.36,RU,1611121487
Manta,-0.95,-80.7333,77.0,83,75,3.44,EC,1611121200
Kieta,-6.2167,155.6333,83.86,68,100,4.07,PG,1611121489
Behat,30.1667,77.6167,67.98,33,0,6.76,IN,1611121490
Kumul,42.8,93.45,26.76,67,100,2.37,CN,1611121491
Pathein,16.7833,94.7333,85.01,45,18,6.6,MM,1611121492
Wilmington,34.2257,-77.9447,50.0,66,1,6.91,US,1611121494
San Fernando del Valle de Catamarca,-28.4696,-65.7852,59.0,64,93,1.01,AR,1611121487
Saryozek,44.3583,77.9753,33.28,96,100,6.2,KZ,1611121497
Beyneu,45.3167,55.2,22.01,88,85,3.4,KZ,1611121498
Carora,10.1755,-70.0827,70.95,81,30,6.24,VE,1611121499
Vila,42.0304,-8.1588,48.0,93,100,8.86,PT,1611121500
Rawson,-43.3002,-65.1023,68.4,60,36,13.44,AR,1611121504
Natal,-5.795,-35.2094,78.8,83,40,6.91,BR,1611121234
Bathsheba,13.2167,-59.5167,78.8,69,40,21.85,BB,1611121506
Salt,32.0392,35.7272,42.8,93,75,11.5,JO,1611121410
Kachkanar,58.7,59.4948,3.33,94,100,3.49,RU,1611121509
Kirkland Lake,48.1446,-80.0377,-5.8,77,99,6.29,CA,1611121510
Road Town,18.4167,-64.6167,78.01,81,100,18.01,VG,1611121511
Chapleau,47.8405,-83.4034,-10.25,90,61,3.06,CA,1611121513
Verkhnyaya Inta,65.9811,60.3094,2.03,94,100,8.21,RU,1611121514
Maralal,1.0968,36.698,68.54,44,89,9.84,KE,1611121515
Coahuayana Viejo,18.7333,-103.6833,72.36,75,100,3.8,MX,1611121517
Kalangala,-0.3089,32.225,72.3,66,68,3.18,UG,1611121518
Kimbe,-5.5502,150.1429,83.41,77,80,3.22,PG,1611121520
Birjand,32.8663,59.2211,44.6,15,0,11.5,IR,1611121521
Zhaotong,27.3167,103.7167,41.63,78,100,5.64,CN,1611121522
Ostrovnoy,68.0531,39.5131,13.89,94,100,17.65,RU,1611121524
Nemuro,43.3236,145.575,19.4,53,40,6.91,JP,1611121400
Mitsamiouli,-11.3847,43.2844,82.87,75,100,10.0,KM,1611121527
Ambatolampy,-19.3833,47.4167,66.2,94,75,8.05,MG,1611121529
Matagami,49.7502,-77.6328,-5.8,84,90,9.22,CA,1611121530
Kiryat Gat,31.61,34.7642,52.0,100,100,15.66,IL,1611121531
